{"type": "FeatureCollection", "features": [{"id": "43", "type": "Feature", "properties": {"NAME": null, "NAME_EN": null, "NAME_RU": null, "MAN_MADE": null, "LEISURE": null, "AMENITY": null, "OFFICE": null, "SHOP": null, "TOURISM": "hotel", "SPORT": null, "OSM_TYPE": "node", "OSM_ID": 895560677}, "geometry": {"type": "Point", "coordinates": [121.6105596, 63.7459999]}}, {"id": "44", "type": "Feature", "properties": {"NAME": null, "NAME_EN": null, "NAME_RU": null, "MAN_MADE": null, "LEISURE": null, "AMENITY": "restaurant", "OFFICE": null, "SHOP": null, "TOURISM": null, "SPORT": null, "OSM_TYPE": "node", "OSM_ID": 895560678}, "geometry": {"type": "Point", "coordinates": [121.6111175, 63.746303700000006]}}, {"id": "517", "type": "Feature", "properties": {"NAME": null, "NAME_EN": null, "NAME_RU": null, "MAN_MADE": "tower", "LEISURE": null, "AMENITY": null, "OFFICE": null, "SHOP": null, "TOURISM": null, "SPORT": null, "OSM_TYPE": "node", "OSM_ID": 1787223292}, "geometry": {"type": "Point", "coordinates": [121.5683063, 63.725006500000006]}}, {"id": "518", "type": "Feature", "properties": {"NAME": null, "NAME_EN": null, "NAME_RU": null, "MAN_MADE": "tower", "LEISURE": null, "AMENITY": null, "OFFICE": null, "SHOP": null, "TOURISM": null, "SPORT": null, "OSM_TYPE": "node", "OSM_ID": 1787223371}, "geometry": {"type": "Point", "coordinates": [121.69252660000001, 63.758655100000006]}}, {"id": "519", "type": "Feature", "properties": {"NAME": null, "NAME_EN": null, "NAME_RU": null, "MAN_MADE": "tower", "LEISURE": null, "AMENITY": null, "OFFICE": null, "SHOP": null, "TOURISM": null, "SPORT": null, "OSM_TYPE": "node", "OSM_ID": 1787223373}, "geometry": {"type": "Point", "coordinates": [121.69264690000001, 63.7589491]}}, {"id": "2280", "type": "Feature", "properties": {"NAME": "Мария", "NAME_EN": "Mareya", "NAME_RU": "Мария", "MAN_MADE": null, "LEISURE": null, "AMENITY": null, "OFFICE": null, "SHOP": null, "TOURISM": "hotel", "SPORT": null, "OSM_TYPE": "node", "OSM_ID": 4934871622}, "geometry": {"type": "Point", "coordinates": [121.63625470000001, 63.7576381]}}, {"id": "3323", "type": "Feature", "properties": {"NAME": null, "NAME_EN": null, "NAME_RU": null, "MAN_MADE": null, "LEISURE": null, "AMENITY": "ferry_terminal", "OFFICE": null, "SHOP": null, "TOURISM": null, "SPORT": null, "OSM_TYPE": "node", "OSM_ID": 6917864943}, "geometry": {"type": "Point", "coordinates": [121.64366310000001, 63.7693328]}}, {"id": "3324", "type": "Feature", "properties": {"NAME": null, "NAME_EN": null, "NAME_RU": null, "MAN_MADE": null, "LEISURE": null, "AMENITY": "fast_food", "OFFICE": null, "SHOP": null, "TOURISM": null, "SPORT": null, "OSM_TYPE": "node", "OSM_ID": 6917907315}, "geometry": {"type": "Point", "coordinates": [121.6963049, 63.750882600000004]}}, {"id": "3325", "type": "Feature", "properties": {"NAME": null, "NAME_EN": null, "NAME_RU": null, "MAN_MADE": null, "LEISURE": null, "AMENITY": "pharmacy", "OFFICE": null, "SHOP": null, "TOURISM": null, "SPORT": null, "OSM_TYPE": "node", "OSM_ID": 6918925099}, "geometry": {"type": "Point", "coordinates": [121.6292071, 63.7552802]}}, {"id": "3326", "type": "Feature", "properties": {"NAME": null, "NAME_EN": null, "NAME_RU": null, "MAN_MADE": "chimney", "LEISURE": null, "AMENITY": null, "OFFICE": null, "SHOP": null, "TOURISM": null, "SPORT": null, "OSM_TYPE": "node", "OSM_ID": 6918925117}, "geometry": {"type": "Point", "coordinates": [121.6218132, 63.7562994]}}, {"id": "3327", "type": "Feature", "properties": {"NAME": null, "NAME_EN": null, "NAME_RU": null, "MAN_MADE": "chimney", "LEISURE": null, "AMENITY": null, "OFFICE": null, "SHOP": null, "TOURISM": null, "SPORT": null, "OSM_TYPE": "node", "OSM_ID": 6918925118}, "geometry": {"type": "Point", "coordinates": [121.62168890000001, 63.756315]}}, {"id": "3500", "type": "Feature", "properties": {"NAME": null, "NAME_EN": null, "NAME_RU": null, "MAN_MADE": null, "LEISURE": null, "AMENITY": "clinic", "OFFICE": null, "SHOP": null, "TOURISM": null, "SPORT": null, "OSM_TYPE": "node", "OSM_ID": 6975147045}, "geometry": {"type": "Point", "coordinates": [121.61493940000001, 63.8769215]}}, {"id": "3501", "type": "Feature", "properties": {"NAME": null, "NAME_EN": null, "NAME_RU": null, "MAN_MADE": "tower", "LEISURE": null, "AMENITY": null, "OFFICE": null, "SHOP": null, "TOURISM": null, "SPORT": null, "OSM_TYPE": "node", "OSM_ID": 6975147075}, "geometry": {"type": "Point", "coordinates": [121.60989180000001, 63.8781363]}}, {"id": "3502", "type": "Feature", "properties": {"NAME": null, "NAME_EN": null, "NAME_RU": null, "MAN_MADE": null, "LEISURE": null, "AMENITY": null, "OFFICE": null, "SHOP": "bakery", "TOURISM": null, "SPORT": null, "OSM_TYPE": "node", "OSM_ID": 6975147084}, "geometry": {"type": "Point", "coordinates": [121.6082308, 63.877671500000005]}}, {"id": "3593", "type": "Feature", "properties": {"NAME": "Вилюйск", "NAME_EN": null, "NAME_RU": null, "MAN_MADE": null, "LEISURE": null, "AMENITY": null, "OFFICE": null, "SHOP": null, "TOURISM": "hotel", "SPORT": null, "OSM_TYPE": "node", "OSM_ID": 7203663785}, "geometry": {"type": "Point", "coordinates": [121.6247498, 63.748328900000004]}}, {"id": "4081", "type": "Feature", "properties": {"NAME": "Азиатско-Тихоокеанский Банк", "NAME_EN": null, "NAME_RU": null, "MAN_MADE": null, "LEISURE": null, "AMENITY": "bank", "OFFICE": null, "SHOP": null, "TOURISM": null, "SPORT": null, "OSM_TYPE": "node", "OSM_ID": 7670732178}, "geometry": {"type": "Point", "coordinates": [121.631302, 63.756626000000004]}}, {"id": "4375", "type": "Feature", "properties": {"NAME": "DNS", "NAME_EN": "DNS", "NAME_RU": "ДНС", "MAN_MADE": null, "LEISURE": null, "AMENITY": null, "OFFICE": null, "SHOP": "electronics", "TOURISM": null, "SPORT": null, "OSM_TYPE": "node", "OSM_ID": 8237626525}, "geometry": {"type": "Point", "coordinates": [121.6296145, 63.7557528]}}, {"id": "4417", "type": "Feature", "properties": {"NAME": null, "NAME_EN": null, "NAME_RU": null, "MAN_MADE": null, "LEISURE": null, "AMENITY": "dentist", "OFFICE": null, "SHOP": null, "TOURISM": null, "SPORT": null, "OSM_TYPE": "node", "OSM_ID": 8381285484}, "geometry": {"type": "Point", "coordinates": [121.63125660000001, 63.75672170000001]}}, {"id": "4607", "type": "Feature", "properties": {"NAME": "Сотовый мир", "NAME_EN": null, "NAME_RU": null, "MAN_MADE": null, "LEISURE": null, "AMENITY": null, "OFFICE": null, "SHOP": "mobile_phone", "TOURISM": null, "SPORT": null, "OSM_TYPE": "node", "OSM_ID": 8839190153}, "geometry": {"type": "Point", "coordinates": [121.62298100000001, 63.753105000000005]}}, {"id": "4826", "type": "Feature", "properties": {"NAME": "Югория", "NAME_EN": null, "NAME_RU": null, "MAN_MADE": null, "LEISURE": null, "AMENITY": null, "OFFICE": "insurance", "SHOP": null, "TOURISM": null, "SPORT": null, "OSM_TYPE": "node", "OSM_ID": 9612438154}, "geometry": {"type": "Point", "coordinates": [121.626699, 63.75457600000001]}}, {"id": "4828", "type": "Feature", "properties": {"NAME": "МТС", "NAME_EN": null, "NAME_RU": null, "MAN_MADE": null, "LEISURE": null, "AMENITY": null, "OFFICE": "telecommunication", "SHOP": "mobile_phone", "TOURISM": null, "SPORT": null, "OSM_TYPE": "node", "OSM_ID": 9612450468}, "geometry": {"type": "Point", "coordinates": [121.6230163, 63.753145700000005]}}, {"id": "4870", "type": "Feature", "properties": {"NAME": "Совкомбанк", "NAME_EN": null, "NAME_RU": null, "MAN_MADE": null, "LEISURE": null, "AMENITY": "bank", "OFFICE": null, "SHOP": null, "TOURISM": null, "SPORT": null, "OSM_TYPE": "node", "OSM_ID": 9648066874}, "geometry": {"type": "Point", "coordinates": [121.6204843, 63.755069600000006]}}, {"id": "5518", "type": "Feature", "properties": {"NAME": "Центр \"Мои Документы\"", "NAME_EN": null, "NAME_RU": null, "MAN_MADE": null, "LEISURE": null, "AMENITY": null, "OFFICE": "government", "SHOP": null, "TOURISM": null, "SPORT": null, "OSM_TYPE": "node", "OSM_ID": 11079705024}, "geometry": {"type": "Point", "coordinates": [121.62412250000001, 63.753722800000006]}}, {"id": "5651", "type": "Feature", "properties": {"NAME": "ТОСП центра \"Мои Документы\"", "NAME_EN": null, "NAME_RU": null, "MAN_MADE": null, "LEISURE": null, "AMENITY": null, "OFFICE": "government", "SHOP": null, "TOURISM": null, "SPORT": null, "OSM_TYPE": "node", "OSM_ID": 11101278222}, "geometry": {"type": "Point", "coordinates": [121.6074933, 63.8783594]}}, {"id": "771", "type": "Feature", "properties": {"NAME": null, "NAME_EN": null, "NAME_RU": null, "RAILWAY": null, "HIGHWAY": "bus_stop", "REF": null, "NETWORK": null, "PUBLIC_TRA": "platform", "OSM_TYPE": "node", "OSM_ID": 6917907497}, "geometry": {"type": "Point", "coordinates": [121.575372, 63.7277709]}}, {"id": "772", "type": "Feature", "properties": {"NAME": null, "NAME_EN": null, "NAME_RU": null, "RAILWAY": null, "HIGHWAY": "bus_stop", "REF": null, "NETWORK": null, "PUBLIC_TRA": "platform", "OSM_TYPE": "node", "OSM_ID": 6917907498}, "geometry": {"type": "Point", "coordinates": [121.57646030000001, 63.72773350000001]}}, {"id": "14", "type": "Feature", "properties": {"NAME": "Вилюйск", "NAME_EN": "Vilyuysk", "INT_NAME": "Vilyuysk", "NAME_RU": "Вилюйск", "OFFICIAL_S": "ru:город", "PLACE": "town", "A_CNTR": "RU", "A_RGN": "Республика Саха (Якутия)", "A_DSTRCT": "Вилюйский улус", "A_PSTCD": null, "POPULATION": "11095", "OSM_TYPE": "node", "OSM_ID": 301778109, "oktmo": "98618101001", "okato": "98218501000", "POP": 11095.0}, "geometry": {"type": "Point", "coordinates": [121.62654900000001, 63.754082000000004]}}, {"id": "276", "type": "Feature", "properties": {"NAME": "Тосу", "NAME_EN": null, "INT_NAME": null, "NAME_RU": "Тосу", "OFFICIAL_S": null, "PLACE": "village", "A_CNTR": "RU", "A_RGN": "Республика Саха (Якутия)", "A_DSTRCT": "Вилюйский улус", "A_PSTCD": null, "POPULATION": "665", "OSM_TYPE": "node", "OSM_ID": 1882511044, "oktmo": "98618462101", "okato": "98218862001", "POP": 665.0}, "geometry": {"type": "Point", "coordinates": [121.6114526, 63.8790982]}}, {"id": "542", "type": "Feature", "properties": {"NAME": "Староватово", "NAME_EN": null, "INT_NAME": null, "NAME_RU": null, "OFFICIAL_S": null, "PLACE": "hamlet", "A_CNTR": "RU", "A_RGN": "Республика Саха (Якутия)", "A_DSTRCT": "Вилюйский улус", "A_PSTCD": null, "POPULATION": "78", "OSM_TYPE": "node", "OSM_ID": 2294262998, "oktmo": "98618462106", "okato": "98218862002", "POP": 78.0}, "geometry": {"type": "Point", "coordinates": [121.62597330000001, 63.7842173]}},
  {"id": "1001", "type": "Feature", "properties": {"NAME": "Администрация города", "NAME_RU": "Администрация города Вилюйска", "AMENITY": "government", "OFFICE": "government", "ADDRESS": "ул. Октябрьская, 1", "HAS_3D": true, "MODEL": "admin.glb", "OSM_TYPE": "node"}, "geometry": {"type": "Point", "coordinates": [121.6313, 63.7557]}},
  {"id": "1002", "type": "Feature", "properties": {"NAME": "Краеведческий музей", "NAME_RU": "Краеведческий музей", "AMENITY": "museum", "ADDRESS": "ул. Гуляева, 1", "HAS_3D": true, "MODEL": "museum.glb", "OSM_TYPE": "node"}, "geometry": {"type": "Point", "coordinates": [121.6289, 63.7542]}},
  {"id": "1003", "type": "Feature", "properties": {"NAME": "Центральная районная больница", "NAME_RU": "Центральная районная больница", "AMENITY": "hospital", "ADDRESS": "ул. Мира, 18А", "HAS_3D": true, "MODEL": "hospital.glb", "OSM_TYPE": "node"}, "geometry": {"type": "Point", "coordinates": [121.6352, 63.7531]}},
  {"id": "1004", "type": "Feature", "properties": {"NAME": "Вилюйская СОШ №2", "NAME_RU": "Вилюйская СОШ №2", "AMENITY": "school", "ADDRESS": "ул. Жиркова, 40", "HAS_3D": true, "MODEL": "school.glb", "OSM_TYPE": "node"}, "geometry": {"type": "Point", "coordinates": [121.6275, 63.7518]}},
  {"id": "1005", "type": "Feature", "properties": {"NAME": "Набережная р. Вилюй", "NAME_RU": "Набережная р. Вилюй", "AMENITY": "park", "ADDRESS": "правый берег р. Вилюй", "HAS_3D": true, "MODEL": "park.glb", "OSM_TYPE": "node"}, "geometry": {"type": "Point", "coordinates": [121.6220, 63.7565]}},
  {"id": "1006", "type": "Feature", "properties": {"NAME": "Дворец культуры им. Жиркова", "NAME_RU": "Дворец культуры им. Жиркова", "AMENITY": "theatre", "ADDRESS": "ул. Интернациональная, 13", "HAS_3D": true, "MODEL": "culture.glb", "OSM_TYPE": "node"}, "geometry": {"type": "Point", "coordinates": [121.6301, 63.7548]}}
]}
